%time,field.header.seq,field.header.stamp,field.header.frame_id,field.blob_count,field.blobs0.x,field.blobs0.y,field.blobs0.z
1457026756266051297,42,1457026756265558862,,1,5.00946929535,4.9031818521,0.0
1457026756315993035,43,1457026756315622043,,1,5.02290416329,4.9215313649,0.0
1457026756366012721,44,1457026756365612016,,1,5.11881359046,5.28367329183,0.0
1457026756416015191,45,1457026756415617298,,1,4.66865558846,5.02133891696,0.0
1457026756466017340,46,1457026756465620364,,1,4.67316914924,5.11630832849,0.0
1457026756516017469,47,1457026756515616204,,1,4.67665403058,4.57596727063,0.0
1457026756566018995,48,1457026756565589989,,1,4.82934222469,4.34617571169,0.0
1457026756615996450,49,1457026756615586430,,1,5.016035163,4.45561913235,0.0
1457026756666029174,50,1457026756665590098,,2,4.92360645774,5.46300913439,0.0,-4.93596919588,-5.14867408464,0.0
1457026756716076619,51,1457026756715593691,,2,4.99036501751,4.97962351326,0.0,-4.52738708297,-5.31776117838,0.0
1457026756766053379,52,1457026756765593043,,2,4.73465715673,4.60904222919,0.0,-4.44822036886,-4.43426919463,0.0
1457026756816046106,53,1457026756815590176,,2,5.22501612731,5.36777224078,0.0,-4.81859747325,-5.10979504327,0.0
1457026756866054299,54,1457026756865587174,,2,5.24274950747,5.22509692084,0.0,-5.17347913843,-5.19031270159,0.0
1457026756916036407,55,1457026756915582554,,2,4.48269411142,5.0053175628,0.0,-4.69107708016,-4.78276815898,0.0
1457026756965992131,56,1457026756965601279,,2,5.37931633357,4.90195738315,0.0,-5.03452218801,-4.80926772186,0.0
1457026757015989302,57,1457026757015594881,,2,4.66981167082,5.51751693761,0.0,-5.90281798061,-5.2739072233,0.0
1457026757065991257,58,1457026757065562396,,2,4.5312159665,4.7216963703,0.0,-4.02778335038,-5.26592353707,0.0
1457026757116044118,59,1457026757115576548,,2,5.00930665055,5.05604873707,0.0,-4.23301268244,-5.17200607443,0.0
1457026757166103487,60,1457026757165595781,,2,5.0044319326,4.44331840437,0.0,-4.7353143872,-4.59643010778,0.0
1457026757216044893,61,1457026757215579874,,2,4.98219286062,5.55604799861,0.0,-4.1691424581,-5.1552896438,0.0
1457026757266026321,62,1457026757265563216,,2,4.28871474539,4.97336470844,0.0,-4.86047531346,-5.03848363802,0.0
1457026757315986645,63,1457026757315603522,,2,4.90265379234,4.70620931549,0.0,-5.53439429332,-4.95075716934,0.0
1457026757365988043,64,1457026757365553969,,2,5.24361477537,4.80078227932,0.0,-4.92174540851,-5.23940649352,0.0
1457026757415988458,65,1457026757415553292,,2,5.38280453876,4.89989375858,0.0,-4.98154307563,-4.97714316123,0.0
1457026757466065818,66,1457026757465624883,,2,4.83171032145,4.94855641557,0.0,-5.12919110776,-4.93082719154,0.0
1457026757516062315,67,1457026757515608611,,2,5.32725835814,5.38869786068,0.0,-4.63000009995,-5.21651562492,0.0
1457026757565999902,68,1457026757565571511,,2,5.12831754993,5.17497642764,0.0,-4.83857845558,-5.59434985438,0.0
1457026757616058405,69,1457026757615581955,,2,4.97422725169,5.54590848865,0.0,-4.65634781757,-5.08940406644,0.0
1457026757666022773,70,1457026757665562926,,2,5.48389533336,4.24504489895,0.0,-5.29949559038,-5.4451365598,0.0
1457026757716062558,71,1457026757715625959,,2,4.99274406163,5.26961503206,0.0,-4.72305081557,-4.93679292752,0.0
1457026757766166568,72,1457026757765636755,,2,5.09954987063,4.76708790784,0.0,-4.87921824145,-5.16816889471,0.0
1457026757816126462,73,1457026757815612412,,2,5.00201470663,5.04949375618,0.0,-4.58474180837,-5.1828255308,0.0
1457026757866088956,74,1457026757865620980,,2,5.18956946504,4.90972172544,0.0,-5.13101540283,-5.27277377019,0.0
1457026757916057234,75,1457026757915577937,,2,4.61540914528,5.52945746657,0.0,-4.97603982387,-5.49228834803,0.0
1457026757966104801,76,1457026757965619401,,2,5.19190944471,5.55029359418,0.0,-5.0146855493,-5.34012626842,0.0
1457026758016056731,77,1457026758015568089,,2,4.99491175572,5.74715535151,0.0,-5.24484703526,-4.80315008062,0.0
1457026758066089161,78,1457026758065627200,,2,4.61131726386,4.65276938406,0.0,-5.10375893956,-5.1536671546,0.0
1457026758116057086,79,1457026758115577374,,2,4.12467663013,5.14830156581,0.0,-4.87913106842,-4.77620363794,0.0
1457026758166071966,80,1457026758165622826,,2,4.93308351156,5.09011159091,0.0,-5.1461456104,-5.51566336537,0.0
1457026758216050017,81,1457026758215628805,,2,5.25917468583,4.53432260405,0.0,-4.74347683888,-4.94799706673,0.0
1457026758266053385,82,1457026758265622135,,2,4.65339061177,4.79423871671,0.0,-5.10249500902,-4.39989224605,0.0
1457026758316094815,83,1457026758315620725,,2,4.53619732297,4.8501913598,0.0,-4.83663675149,-4.95123192088,0.0
1457026758366109442,84,1457026758365622293,,2,5.40127313699,4.77009307985,0.0,-4.2127270115,-4.44941200974,0.0
1457026758416066760,85,1457026758415618679,,2,4.89890422918,5.44133488064,0.0,-4.7518168989,-5.49898122587,0.0
1457026758466091190,86,1457026758465584105,,2,5.01354178532,4.70087462123,0.0,-5.05271423971,-5.14592621688,0.0
1457026758516069715,87,1457026758515619490,,2,5.00902571611,4.61485937433,0.0,-5.20854767478,-4.53500158588,0.0
1457026758566099944,88,1457026758565620331,,2,4.85023065051,5.13985531738,0.0,-4.66846451141,-5.10721126714,0.0
1457026758616139382,89,1457026758615622736,,2,4.66555899691,4.84817967963,0.0,-4.56749421394,-4.90490277553,0.0
1457026758666118089,90,1457026758665620691,,2,5.27128735042,5.14006709082,0.0,-5.14424312855,-4.94156956786,0.0
1457026758716123400,91,1457026758715624900,,2,5.26391076811,5.09305179233,0.0,-5.15161553593,-4.86039200304,0.0
1457026758765951275,92,1457026758765594694,,2,4.60534712187,4.9226643171,0.0,-4.99053070465,-5.0968181479,0.0
1457026758816095125,93,1457026758815619667,,2,5.05132113305,4.72310142636,0.0,-4.97709583671,-5.0784686351,0.0
1457026758866102722,94,1457026758865621917,,2,5.71088736862,4.68711090346,0.0,-4.88118640954,-4.71632670817,0.0
1457026758916088764,95,1457026758915623104,,2,5.11902789954,5.12660224759,0.0,-5.33134441154,-4.97866108304,0.0
1457026758966035954,96,1457026758965613902,,2,4.72696902674,4.87397774717,0.0,-5.32683085076,-4.88369167151,0.0
1457026759016087526,97,1457026759015606340,,2,4.7085285017,5.05675858812,0.0,-5.32334596942,-5.42403272937,0.0
1457026759066090812,98,1457026759065610078,,2,5.48203408958,5.03611526209,0.0,-5.17065777531,-5.65382428831,0.0
1457026759116091794,99,1457026759115612092,,2,4.84511869133,5.25409366003,0.0,-4.983964837,-5.54438086765,0.0
1457026759166107414,100,1457026759165623993,,2,5.36026376084,5.58527140716,0.0,-5.07639354226,-4.53699086561,0.0
1457026759216099511,101,1457026759215618335,,2,5.0882049085,4.69122240422,0.0,-5.00963498249,-5.02037648674,0.0
1457026759266102612,102,1457026759265619933,,2,4.7756944551,5.55413363179,0.0,-5.26534284327,-5.39095777081,0.0
1457026759316091922,103,1457026759315608281,,2,4.58915672488,4.92554503798,0.0,-4.77498387269,-4.63222775922,0.0
1457026759365936419,104,1457026759365556153,,2,5.07652944662,5.1306164325,0.0,-4.75725049253,-4.77490307916,0.0
1457026759416102776,105,1457026759415621074,,2,4.7282187272,4.7973208625,0.0,-5.51730588858,-4.9946824372,0.0
1457026759466065110,106,1457026759465615225,,2,4.97772664479,5.2726840763,0.0,-4.62068366643,-5.09804261685,0.0
1457026759516110332,107,1457026759515623473,,2,4.79107277358,4.69636704016,0.0,-5.33018832918,-4.48248306239,0.0
1457026759566059095,108,1457026759565627267,,2,4.82256376688,4.55822991068,0.0,-5.4687840335,-5.2783036297,0.0
1457026759616099712,109,1457026759615615374,,2,4.98960014835,4.10457414369,0.0,-4.99069334945,-4.94395126293,0.0
1457026759665959363,110,1457026759665562243,,2,4.54393259985,5.14647133888,0.0,-4.9955680674,-5.55668159563,0.0
1457026759716102093,111,1457026759715622945,,2,5.57256297119,5.33291454471,0.0,-5.01780713938,-4.44395200139,0.0
1457026759766055615,112,1457026759765625332,,2,5.04689185033,5.35292785847,0.0,-5.71128525461,-5.02663529156,0.0
1457026759816046960,113,1457026759815608891,,2,5.3280343255,4.80134669842,0.0,-5.09734620766,-5.29379068451,0.0
1457026759865987436,114,1457026759865620510,,2,5.20426311326,5.29016402212,0.0,-4.75638522463,-5.19921772068,0.0
1457026759916103216,115,1457026759915622436,,2,5.15328479433,4.70294123891,0.0,-4.61719546124,-5.10010624142,0.0
1457026759965931802,116,1457026759965575901,,2,4.63357299728,4.90997468199,0.0,-5.16828967855,-5.05144358443,0.0
1457026760016058512,117,1457026760015627863,,2,5.32673970986,4.99206314104,0.0,-4.67274164186,-4.61130213932,0.0
1457026760066037105,118,1457026760065622646,,2,5.51935044678,5.27781062485,0.0,-4.87168245007,-4.82502357236,0.0
1457026760116105053,119,1457026760115618505,,2,4.61773894843,5.14395531083,0.0,-5.02577274831,-4.45409151135,0.0
1457026760166088491,120,1457026760165628226,,2,5.27625650501,5.21891894511,0.0,-4.51610466664,-5.75495510105,0.0
1457026760216100507,121,1457026760215621491,,2,5.8148255943,4.80111542314,0.0,-5.00725593837,-4.73038496794,0.0
1457026760266096817,122,1457026760265629362,,2,5.07924814688,5.00230817605,0.0,-4.90045012937,-5.23291209216,0.0
1457026760316099829,123,1457026760315622147,,2,5.12844856792,4.18604430153,0.0,-4.99798529337,-4.95050624382,0.0
1457026760365954324,124,1457026760365560757,,2,5.11696403053,4.74009708633,0.0,-4.81043053496,-5.09027827456,0.0
1457026760416100071,125,1457026760415626430,,2,5.30709582156,4.66755397797,0.0,-5.38459085472,-4.47054253343,0.0
1457026760466001527,126,1457026760465558555,,2,5.23856841571,5.1399499413,0.0,-4.80809055529,-4.44970640582,0.0
1457026760516148157,127,1457026760515619634,,2,4.5227613528,5.34773095628,0.0,-5.00508824428,-4.25284464849,0.0
1457026760566126422,128,1457026760565618200,,2,4.99435384473,5.0909244366,0.0,-5.38868273614,-5.34723061594,0.0
1457026760616128626,129,1457026760615622504,,2,5.13637552398,4.58089293939,0.0,-5.87532336987,-4.85169843419,0.0
1457026760666125509,130,1457026760665621962,,2,4.54617634362,5.20864941767,0.0,-5.06691648844,-4.90988840909,0.0
1457026760716125564,131,1457026760715620754,,2,5.13567306981,4.91467164288,0.0,-4.74082531417,-5.46567739595,0.0
1457026760766138601,132,1457026760765620022,,2,5.35400442418,5.77553345574,0.0,-5.34660938823,-5.20576128329,0.0
1457026760816150840,133,1457026760815620422,,2,4.98836666581,5.13380202595,0.0,-5.46380267703,-5.1498086402,0.0
1457026760866131322,134,1457026760865623564,,2,5.14922567743,5.19373176227,0.0,-4.59872686301,-5.22990692015,0.0
1457026760916073924,135,1457026760915593219,,2,5.35438646035,5.4074548878,0.0,-5.10109577082,-4.55866511936,0.0
1457026760966119531,136,1457026760965605497,,2,5.08212784339,4.91175960173,0.0,-4.98645821468,-5.29912537877,0.0
1457026761015908328,137,1457026761015559928,,2,4.63022389291,4.79760673859,0.0,-4.99097428389,-5.38514062567,0.0
1457026761066135723,138,1457026761065621246,,2,4.96361458495,4.98821298549,0.0,-5.14976934949,-4.86014468262,0.0
1457026761116087852,139,1457026761115618084,,2,5.27778286158,5.35790556878,0.0,-5.33444100309,-5.15182032037,0.0
1457026761165992958,140,1457026761165583715,,2,5.22356233969,4.70430322966,0.0,-4.72871264958,-4.85993290918,0.0
1457026761216079178,141,1457026761215616389,,2,4.76785257583,4.77628836981,0.0,-4.73608923189,-4.90694820767,0.0
1457026761266158201,142,1457026761265621685,,2,4.88138072603,5.16122766222,0.0,-5.39465287813,-5.0773356829,0.0
1457026761315939064,143,1457026761315563498,,2,4.83707224592,4.9864049516,0.0,-4.94867886695,-5.27689857364,0.0
1457026761366136677,144,1457026761365620682,,2,4.75980065909,5.17037987714,0.0,-4.28911263138,-5.31288909654,0.0
1457026761416107620,145,1457026761415622145,,2,5.45178319941,5.23366230072,0.0,-4.88097210046,-4.87339775241,0.0
1457026761466153023,146,1457026761465622375,,2,5.00546002049,5.08606103801,0.0,-5.27303097326,-5.12602225283,0.0
1457026761515892941,147,1457026761515572205,,2,5.16371079423,5.16028844126,0.0,-5.2914714983,-4.94324141188,0.0
1457026761565802171,148,1457026761565555306,,2,5.14348528665,5.32542936262,0.0,-4.51796591042,-4.96388473791,0.0
1457026761615755792,149,1457026761615550389,,2,5.03519891663,5.55682020279,0.0,-5.15488130867,-4.74590633997,0.0
1457026761665929664,150,1457026761665552270,,2,4.26336280888,5.42160050327,0.0,-4.63973623916,-4.41472859284,0.0
1457026761716079894,151,1457026761715618303,,2,5.53173489006,5.17149558385,0.0,-4.9117950915,-5.30877759578,0.0
1457026761765921582,152,1457026761765581330,,2,5.20825945829,4.85405486814,0.0,-5.2243055449,-4.44586636821,0.0
1457026761816078473,153,1457026761815615129,,2,5.08843869717,4.96802646726,0.0,-5.41084327512,-5.07445496202,0.0
1457026761866039839,154,1457026761865579268,,2,4.77395090035,5.01299007385,0.0,-4.92347055338,-4.8693835675,0.0
1457026761916144223,155,1457026761915622475,,2,4.62486571988,5.02537051738,0.0,-5.2717812728,-5.2026791375,0.0
1457026761966029187,156,1457026761965562393,,2,4.67144900628,5.53449115183,0.0,-5.02227335521,-4.7273159237,0.0
1457026762016139762,157,1457026762015622439,,2,5.22285483963,4.83820165572,0.0,-5.20892722642,-5.30363295984,0.0
1457026762066105498,158,1457026762065623967,,2,4.94684786754,5.05714079793,0.0,-5.17743623312,-5.44177008932,0.0
1457026762116136443,159,1457026762115621806,,2,5.13696821884,5.1150644443,0.0,-5.01039985165,-5.89542585631,0.0
1457026762166095655,160,1457026762165611873,,2,5.11612099812,4.39646704558,0.0,-5.45606740015,-4.85352866112,0.0
1457026762215876875,161,1457026762215561678,,2,4.84137268301,5.13166695761,0.0,-4.42743702881,-4.66708545529,0.0
1457026762265803772,162,1457026762265551784,,2,5.01249395769,5.23910656471,0.0,-4.95310814967,-4.64707214153,0.0
1457026762315770780,163,1457026762315551887,,2,4.7123841234,5.19835088976,0.0,-4.6719656745,-5.19865330158,0.0
1457026762365705471,164,1457026762365542867,,2,5.17534618448,5.12152247939,0.0,-4.79573688674,-4.70983597788,0.0
1457026762415952095,165,1457026762415614336,,2,5.23525722223,5.25683165872,0.0,-4.84671520567,-5.29705876109,0.0
1457026762466131824,166,1457026762465618640,,2,5.69800412271,4.73399138123,0.0,-5.36642700272,-5.09002531801,0.0
1457026762516111226,167,1457026762515619251,,2,5.41942013143,4.88138274305,0.0,-4.67326029014,-5.00793685896,0.0
1457026762565904673,168,1457026762565561019,,2,4.55034844445,4.7701482656,0.0,-4.48064955322,-4.72218937515,0.0
1457026762616129190,169,1457026762615617368,,2,5.2983383808,5.11764275504,0.0,-5.38226105157,-4.85604468917,0.0
1457026762666112585,170,1457026762665624194,,2,5.03634548809,5.37890180711,0.0,-4.72374349499,-4.78108105489,0.0
1457026762716076221,171,1457026762715622394,,2,4.94013955542,5.07904329562,0.0,-4.1851744057,-5.19888457686,0.0
1457026762765980138,172,1457026762765559012,,2,5.11451298634,4.7613122098,0.0,-4.92075185312,-4.99769182395,0.0
1457026762816147571,173,1457026762815601172,,2,5.3042641393,5.02953978649,0.0,-4.87155143208,-5.81395569847,0.0
1457026762866023355,174,1457026762865568738,,2,5.63216801606,5.17517987361,0.0,-4.88303596947,-5.25990291367,0.0
1457026762916155370,175,1457026762915597322,,2,5.26606849733,5.47678472439,0.0,-4.69290417844,-5.33244602203,0.0
1457026762966128748,176,1457026762965615032,,2,4.86264275389,4.81313676445,0.0,-4.76143158429,-4.8600500587,0.0
1457026763016120348,177,1457026763015623299,,2,4.98186900168,4.8428163865,0.0,-5.4772386472,-4.65226904372,0.0
1457026763066149386,178,1457026763065592555,,2,4.7903884211,4.7199231631,0.0,-5.00564615527,-4.9090755634,0.0
1457026763116172384,179,1457026763115623264,,2,4.72120590834,5.08880014008,0.0,-4.86362447602,-5.41910706061,0.0
1457026763166157619,180,1457026763165608931,,2,4.54303087623,4.86096002204,0.0,-5.45382365638,-4.79135058233,0.0
1457026763216173811,181,1457026763215622366,,2,4.92907459741,5.23677461529,0.0,-4.86432693019,-5.08532835712,0.0
1457026763266171420,182,1457026763265621383,,2,4.98602107667,4.58094810087,0.0,-4.64599557582,-4.22446654426,0.0
1457026763316163572,183,1457026763315611094,,2,5.20521385179,5.50853028983,0.0,-5.01163333419,-4.86619797405,0.0
1457026763366173403,184,1457026763365610322,,2,4.8995237427,4.76051841025,0.0,-4.85077432257,-4.80626823773,0.0
1457026763416132424,185,1457026763415610291,,2,5.1201576358,5.27069200653,0.0,-4.64561353965,-4.5925451122,0.0
1457026763466183044,186,1457026763465610090,,2,4.81336800747,5.20257401885,0.0,-4.91787215661,-5.08824039827,0.0
1457026763516176514,187,1457026763515625590,,2,4.61133882368,4.60830594805,0.0,-5.36977610709,-5.20239326141,0.0
1457026763566193737,188,1457026763565621229,,2,5.08425172866,4.56174047064,0.0,-5.03638541505,-5.01178701451,0.0
1457026763616127355,189,1457026763615623458,,2,5.25579589805,5.14299040842,0.0,-4.72221713842,-4.64209443122,0.0
1457026763666159594,190,1457026763665590208,,2,5.3001121742,4.85736111757,0.0,-4.77643766031,-5.29569677034,0.0
1457026763716176351,191,1457026763715621939,,2,5.04105230213,4.74811130932,0.0,-5.23214742417,-5.22371163019,0.0
1457026763766181232,192,1457026763765614432,,2,4.34305436016,5.05464585672,0.0,-5.11861927397,-4.83877233778,0.0
1457026763816185771,193,1457026763815626459,,2,4.6803952502,5.13626304698,0.0,-5.16292775408,-5.0135950484,0.0
1457026763866159912,194,1457026763865591554,,2,4.5241611487,5.16531221787,0.0,-5.24019934091,-4.82962012286,0.0
1457026763916111222,195,1457026763915600495,,2,4.95025737936,5.13457419008,0.0,-4.54821680059,-4.76633769928,0.0
1457026763966113000,196,1457026763965561930,,2,4.70036909548,4.98396601031,0.0,-4.99453997951,-4.91393896199,0.0
1457026764016120601,197,1457026764015619930,,2,4.39517129792,4.95900275372,0.0,-4.83628920577,-4.83971155874,0.0
1457026764066031783,198,1457026764065557845,,2,5.11701815037,4.74138702759,0.0,-4.85651471335,-4.67457063738,0.0
1457026764116035247,199,1457026764115561102,,2,5.18610970617,4.35686415087,0.0,-4.96480108337,-4.44317979721,0.0
1457026764166181376,200,1457026764165618672,,2,4.76836269799,4.70400228703,0.0,-5.73663719112,-4.57839949673,0.0
1457026764216150436,201,1457026764215630813,,2,4.88081416583,5.11389892531,0.0,-4.46826510994,-4.82850441615,0.0
1457026764266198546,202,1457026764265613139,,2,5.07559720015,4.81446752147,0.0,-4.79174054171,-5.14594513186,0.0
1457026764316143739,203,1457026764315628897,,2,4.2837955133,4.85015253399,0.0,-4.91156130283,-5.03197353274,0.0
1457026764366150280,204,1457026764365593914,,2,4.46084171354,5.7350028042,0.0,-5.22604909965,-4.98700992615,0.0
1457026764416150727,205,1457026764415633984,,2,5.20617047917,4.91687145675,0.0,-5.37513428012,-4.97462948262,0.0
1457026764465980170,206,1457026764465591059,,2,5.03894911971,4.9615096266,0.0,-5.32855099372,-4.46550884817,0.0
1457026764516109420,207,1457026764515619946,,2,4.71705700919,4.90775886336,0.0,-4.77714516037,-5.16179834428,0.0
1457026764566064868,208,1457026764565612223,,2,4.62521537716,4.63692217986,0.0,-5.05315213246,-4.94285920207,0.0
1457026764616134815,209,1457026764615639717,,2,4.70840854062,4.82245793098,0.0,-4.86303178116,-4.8849355557,0.0
1457026764666124617,210,1457026764665620456,,2,5.09812279613,5.36083390825,0.0,-4.88387900188,-5.60353295442,0.0
1457026764716101042,211,1457026764715651130,,2,4.98167789555,5.05492243164,0.0,-5.15862731699,-4.86833304239,0.0
1457026764765995618,212,1457026764765573980,,2,4.3666722386,5.11700992565,0.0,-4.98750604231,-4.76089343529,0.0
1457026764816096546,213,1457026764815618745,,2,5.02412905792,5.19582985147,0.0,-5.2876158766,-4.80164911024,0.0
1457026764866070200,214,1457026764865593041,,2,5.34916648292,4.4813864381,0.0,-4.82465381552,-4.87847752061,0.0
1457026764916105382,215,1457026764915618814,,2,5.11008953929,5.30437034851,0.0,-4.76474277777,-4.74316834128,0.0
1457026764966005906,216,1457026764965587878,,2,5.02557402671,5.16775047989,0.0,-4.30199587729,-5.26600861877,0.0
1457026765016112668,217,1457026765015620352,,2,5.10607938321,5.19500768612,0.0,-4.58057986857,-5.11861725695,0.0
1457026765066100815,218,1457026765065611070,,2,5.07524757173,5.53265819722,0.0,-5.44965155555,-5.2298517344,0.0
1457026765116093496,219,1457026765115627129,,2,4.68777281326,5.13348849879,0.0,-4.7016616192,-4.88235724496,0.0
1457026765166082818,220,1457026765165609771,,2,4.95124887358,5.12068253111,0.0,-4.96365451191,-4.62109819289,0.0
1457026765216112365,221,1457026765215621863,,2,5.38244960063,4.80020186005,0.0,-5.05986044458,-4.92095670438,0.0
1457026765266083938,222,1457026765265604919,,2,4.61538664425,5.18037353504,0.0,-4.88548701366,-5.2386877902,0.0
1457026765316104961,223,1457026765315624782,,2,5.1583031409,5.36466173963,0.0,-4.6957358607,-4.97046021351,0.0
1457026765366103172,224,1457026765365610636,,2,5.39942588321,4.72811352666,0.0,-4.36783198394,-4.82482012639,0.0
1457026765416108003,225,1457026765415622603,,2,5.27849678098,4.9643702604,0.0,-4.73393150267,-4.52321527561,0.0
1457026765466077739,226,1457026765465591827,,2,4.57988509513,5.16979552601,0.0,-5.13735724611,-5.18686323555,0.0
1457026765516106473,227,1457026765515621424,,2,5.36023935454,5.30230798795,0.0,-5.01813099832,-5.1571836135,0.0
1457026765566086828,228,1457026765565592964,,2,4.99095593624,5.17832968247,0.0,-5.2096115789,-5.2800768369,0.0
1457026765616098382,229,1457026765615626902,,2,4.86496803607,5.08722528695,0.0,-5.27879409166,-4.91119985992,0.0
1457026765666087257,230,1457026765665592251,,2,4.72874683859,4.81591535719,0.0,-5.45696912377,-5.13903997796,0.0
1457026765716081069,231,1457026765715630350,,2,4.99325906601,5.08768169687,0.0,-5.07092540259,-4.76322538471,0.0
1457026765766077365,232,1457026765765589509,,2,4.57202949706,4.67722567411,0.0,-5.01397892333,-5.41905189913,0.0
1457026765816099023,233,1457026765815628319,,2,4.95616197113,4.82368136642,0.0,-4.79478614821,-4.49146971017,0.0
1457026765866075840,234,1457026765865588355,,2,5.09993203067,5.55700641882,0.0,-5.1004762573,-5.23948158975,0.0
1457026765916108583,235,1457026765915622808,,2,5.19680935065,5.17889667909,0.0,-4.8798423642,-4.72930799347,0.0
1457026765966099513,236,1457026765965611261,,2,4.87333979404,5.41943117554,0.0,-5.18663199253,-4.79742598115,0.0
1457026766016103777,237,1457026766015630982,,2,4.86881476001,5.28442975323,0.0,-5.38866117632,-5.39169405195,0.0
1457026766066085595,238,1457026766065591505,,2,4.53475816955,5.24012888494,0.0,-4.91574827134,-5.43825952936,0.0
1457026766116084435,239,1457026766115595413,,2,4.85313183614,4.99274247705,0.0,-4.74420410195,-4.85700959158,0.0
1457026766166024715,240,1457026766165571049,,2,5.81836199125,5.48756456632,0.0,-4.6998878258,-5.14263888243,0.0
1457026766216067339,241,1457026766215628568,,2,4.9851207569,5.18932880602,0.0,-4.95894769787,-5.25188869068,0.0
1457026766266052436,242,1457026766265623490,,2,5.16037624244,4.51691356399,0.0,-5.65694563984,-4.94535414328,0.0
1457026766316108369,243,1457026766315619621,,2,5.23192712297,5.0430659685,0.0,-5.3196047498,-4.86373695302,0.0
1457026766366091049,244,1457026766365587929,,2,5.20240241093,4.90297067666,0.0,-5.4758388513,-4.83468778213,0.0
1457026766416170549,245,1457026766415621529,,2,4.98295804327,4.86280589139,0.0,-5.04974262064,-4.86542580992,0.0
1457026766466071298,246,1457026766465561377,,2,4.7250664128,5.01971119041,0.0,-5.29963090452,-5.01603398969,0.0
1457026766516174853,247,1457026766515620491,,2,4.7850973528,4.88443668413,0.0,-5.60482870208,-5.04099724628,0.0
1457026766566087544,248,1457026766565563507,,2,5.06300822684,5.78691301502,0.0,-4.88298184963,-5.25861297241,0.0
1457026766616095191,249,1457026766615622292,,2,4.79884977457,5.05320035069,0.0,-4.81389029383,-5.64313584913,0.0
1457026766666056502,250,1457026766665603521,,2,5.39845276678,4.9058969467,0.0,-5.23163730201,-5.29599771297,0.0
1457026766716067274,251,1457026766715610515,,2,4.7941944647,4.93766739073,0.0,-5.11918583417,-4.88610107469,0.0
1457026766765990231,252,1457026766765591563,,2,4.80701256195,4.97421946498,0.0,-4.92440279985,-5.18553247853,0.0
1457026766816063704,253,1457026766815609172,,2,5.03507892506,5.30197705746,0.0,-5.7162044867,-5.14984746601,0.0
1457026766866044062,254,1457026766865559514,,2,4.69094607395,5.02159387905,0.0,-5.53915828646,-4.2649971958,0.0
1457026766916174773,255,1457026766915617154,,2,4.8696756453,4.87120592423,0.0,-4.79382952083,-5.08312854325,0.0
1457026766966048598,256,1457026766965555133,,2,4.89107959491,4.77175850212,0.0,-4.96105088029,-5.0384903734,0.0
1457026767016147375,257,1457026767015614407,,2,4.66193361657,5.26048269295,0.0,-5.28294299081,-5.09224113664,0.0
1457026767066118394,258,1457026767065630352,,2,4.88428649247,5.12726920963,0.0,-5.37478462284,-5.36307782014,0.0
1457026767116093336,259,1457026767115597304,,2,5.51229696083,4.96124208332,0.0,-5.29159145938,-5.17754206902,0.0
1457026767166076875,260,1457026767165627541,,2,5.605233524,5.14626476299,0.0,-4.90187720387,-4.63916609175,0.0
1457026767216082300,261,1457026767215615073,,2,5.56978841678,4.49873192998,0.0,-5.01832210445,-4.94507756836,0.0
1457026767266224382,262,1457026767265619781,,2,5.04899154889,4.97031009399,0.0,-5.6333277614,-4.88299007435,0.0
1457026767316102082,263,1457026767315618967,,2,5.11350753416,4.61988136938,0.0,-4.97587094208,-4.80417014853,0.0
1457026767366178656,264,1457026767365622637,,2,5.4166001943,5.29755775627,0.0,-4.65083351708,-5.5186135619,0.0
1457026767416173630,265,1457026767415614347,,2,4.98007446463,5.26664256986,0.0,-4.88991046071,-4.69562965149,0.0
1457026767466186050,266,1457026767465622310,,2,4.91941228667,5.13557171084,0.0,-4.97442597329,-4.83224952011,0.0
1457026767516148521,267,1457026767515613922,,2,4.89347160961,4.77461644803,0.0,-4.89392061679,-4.80499231388,0.0
1457026767566183400,268,1457026767565622268,,2,5.38022396512,5.43985896106,0.0,-4.92475242827,-4.46734180278,0.0
1457026767616074484,269,1457026767615588421,,2,4.96092737568,4.7862296431,0.0,-5.31222718674,-4.86651150121,0.0
1457026767666181300,270,1457026767665620563,,2,5.2774758378,5.22019499941,0.0,-5.04875112642,-4.87931746889,0.0
1457026767716155726,271,1457026767715591668,,2,4.99035429742,4.9860424513,0.0,-4.61755039937,-5.19979813995,0.0
1457026767766172439,272,1457026767765626183,,2,4.95237425297,5.00174417843,0.0,-5.38461335575,-4.81962646496,0.0
1457026767816153387,273,1457026767815603037,,2,5.04475436219,4.75755000225,0.0,-4.8416968591,-4.63533826037,0.0
1457026767866176942,274,1457026767865621403,,2,4.97019656198,4.86652099735,0.0,-4.60057411679,-5.27188647334,0.0
1457026767916137793,275,1457026767915588333,,2,5.24321510476,4.83183721493,0.0,-4.72150321902,-5.0356297396,0.0
1457026767966185586,276,1457026767965624940,,2,5.2176413731,4.82206613167,0.0,-5.42011490487,-4.83020447399,0.0
1457026768016110035,277,1457026768015583952,,2,4.75851233766,5.41327817191,0.0,-4.63976064546,-4.69769201205,0.0
1457026768066083218,278,1457026768065587454,,2,4.96506520172,4.89529643706,0.0,-5.00904406376,-4.82167031753,0.0
1457026768116078627,279,1457026768115588701,,2,5.11604818078,5.34111445585,0.0,-5.13503196393,-4.91277471305,0.0
1457026768166184727,280,1457026768165621215,,2,5.30931903336,5.06009605747,0.0,-5.27125316141,-5.18408464281,0.0
1457026768216164969,281,1457026768215618102,,2,4.98291354322,4.54130006676,0.0,-5.00674093399,-4.91231830313,0.0
1457026768266182907,282,1457026768265621194,,2,4.77036634846,4.99996762861,0.0,-5.42797050294,-5.32277432589,0.0
1457026768316183377,283,1457026768315609522,,2,4.69843366037,5.03824658217,0.0,-5.04383802887,-5.17631863358,0.0
1457026768366177723,284,1457026768365630820,,2,5.19424928409,4.86749215069,0.0,-4.90006796933,-4.44299358118,0.0
1457026768416158163,285,1457026768415623537,,2,4.4602985449,4.55428130664,0.0,-4.80319064935,-4.82110332091,0.0
1457026768466077687,286,1457026768465625368,,2,4.74926757938,4.77137143428,0.0,-5.12666020596,-4.58056882446,0.0
1457026768516031208,287,1457026768515625384,,2,5.26163475491,4.68147190302,0.0,-5.13118523999,-4.71557024677,0.0
1457026768566187709,288,1457026768565621105,,2,5.11865859063,4.67356623954,0.0,-5.46524183045,-4.75987111506,0.0
1457026768616188896,289,1457026768615599931,,2,4.68044519908,4.83280053156,0.0,-5.14686816386,-5.00725752295,0.0
1457026768666036916,290,1457026768665596448,,2,5.09201546644,5.20524253578,0.0,-4.18163800875,-4.51243543368,0.0
1457026768716148734,291,1457026768715610610,,2,5.01706797818,5.26945099804,0.0,-5.0148792431,-4.81067119398,0.0
1457026768766181699,292,1457026768765611030,,2,5.26807470001,4.76814893024,0.0,-4.83962375756,-5.48308643601,0.0
1457026768816168780,293,1457026768815624185,,2,5.39740135018,5.07238268352,0.0,-4.76807287703,-4.9569340315,0.0
1457026768866140581,294,1457026768865611452,,2,4.74200106343,5.01639240824,0.0,-4.79759758907,-5.09702932334,0.0
1457026768916191274,295,1457026768915627325,,2,5.37987278385,5.67016067822,0.0,-5.01704195673,-5.13719410861,0.0
1457026768966182484,296,1457026768965625546,,2,5.21623714813,4.97085979477,0.0,-5.2749335872,-4.98028880959,0.0
1457026769016175592,297,1457026769015633941,,2,4.88449612678,4.51628876719,0.0,-5.2149026472,-5.11556331587,0.0
1457026769066171692,298,1457026769065630892,,2,4.73525413677,4.99921547047,0.0,-4.93699177316,-4.21308698498,0.0
1457026769116185092,299,1457026769115622893,,2,4.74173376885,5.04743885496,0.0,-5.20115022543,-4.94679964931,0.0
1457026769166180710,300,1457026769165631520,,2,5.68916188326,5.27095120467,0.0,-4.60154723322,-5.0941030533,0.0
1457026769216115406,301,1457026769215625527,,2,4.84616221099,4.66227940264,0.0,-5.2058055353,-5.06233260927,0.0
1457026769266164716,302,1457026769265626687,,2,5.58659381557,5.16020113128,0.0,-5.19298743805,-5.02578053502,0.0
1457026769316175992,303,1457026769315631723,,2,5.63123081385,5.30406725695,0.0,-4.96492107494,-4.69802294254,0.0
1457026769366170584,304,1457026769365630968,,2,4.55914758865,4.93965821964,0.0,-5.30905392605,-4.97840612095,0.0
1457026769416171600,305,1457026769415629638,,2,5.20369706963,5.14169345224,0.0,-5.1303243547,-5.12879407577,0.0
1457026769466191256,306,1457026769465624423,,2,5.04586040152,4.89952416865,0.0,-5.10892040509,-5.22824149788,0.0
1457026769516196389,307,1457026769515624212,,2,5.0897346217,4.80141653597,0.0,-5.33806638343,-4.73951730705,0.0
1457026769566147018,308,1457026769565601158,,2,4.91926140042,4.53842317432,0.0,-5.11571350753,-4.87273079037,0.0
1457026769616179620,309,1457026769615619229,,2,5.11631511716,5.15980973237,0.0,-4.48770303917,-5.03875791668,0.0
1457026769666175999,310,1457026769665622802,,2,4.83096946515,4.73510501081,0.0,-4.394766476,-4.85373523701,0.0
1457026769716168723,311,1457026769715629576,,2,4.30126810351,4.91798984141,0.0,-4.43021158322,-5.50126807002,0.0
1457026769766178739,312,1457026769765617128,,2,5.16378101434,4.97191860517,0.0,-4.95100845111,-5.02968990601,0.0
1457026769816135031,313,1457026769815625689,,2,4.74464331782,4.65317474096,0.0,-4.88649246584,-5.38011863062,0.0
1457026769866146263,314,1457026769865628184,,2,5.1055579408,4.67740752267,0.0,-4.5833998057,-4.70244224373,0.0
1457026769916169599,315,1457026769915617322,,2,4.69191930365,5.09203506606,0.0,-5.01992553537,-4.73335743014,0.0
1457026769966175518,316,1457026769965613082,,2,4.79540353589,5.09254680036,0.0,-5.08058771333,-4.86442828916,0.0
1457026770016186576,317,1457026770015621821,,2,5.1623571732,4.68290325626,0.0,-5.10652839039,-5.22538355197,0.0
1457026770066089075,318,1457026770065590394,,2,5.56590398936,5.32737217629,0.0,-4.61977603488,-4.56014103894,0.0
1457026770116081592,319,1457026770115585478,,2,5.08017971591,5.08886615728,0.0,-5.03907262432,-5.2137703569,0.0
1457026770166180418,320,1457026770165620010,,2,5.21973996706,5.42067958315,0.0,-4.7225241622,-4.77980500059,0.0
1457026770216156692,321,1457026770215624450,,2,4.67810508571,5.2631152743,0.0,-5.00964570258,-5.0139575487,0.0
1457026770266162893,322,1457026770265618285,,2,5.09504439918,4.83061006399,0.0,-5.04762574703,-4.99825582157,0.0
1457026770316181670,323,1457026770315620805,,2,5.09928696016,4.71506575602,0.0,-4.95524563781,-5.24244999775,0.0
1457026770366099336,324,1457026770365568409,,2,5.22470988858,5.08973938722,0.0,-5.02980343802,-5.13347900265,0.0
1457026770416043854,325,1457026770415600052,,2,4.52200332563,5.35070240678,0.0,-4.75678489524,-5.16816278507,0.0
1457026770466111586,326,1457026770465590545,,2,4.35259515395,4.88962431787,0.0,-4.7823586269,-5.17793386833,0.0
1457026770516144043,327,1457026770515615895,,2,4.63974243709,5.20759419775,0.0,-5.24148766234,-4.58672182809,0.0
1457026770566024894,328,1457026770565574257,,2,4.89533752574,4.84205462836,0.0,-5.03493479828,-5.10470356294,0.0
1457026770616107410,329,1457026770615613992,,2,4.74960822094,4.74007326001,0.0,-4.88395181922,-4.65888554415,0.0
1457026770666115026,330,1457026770665636514,,2,4.85403965156,5.54041801721,0.0,-4.69068096664,-4.93990394253,0.0
1457026770716074692,331,1457026770715612257,,2,4.74261288682,5.11787133118,0.0,-5.01708645678,-5.45869993324,0.0
1457026770766114239,332,1457026770765622063,,2,5.54949502754,5.05363992763,0.0,-5.22963365154,-5.00003237139,0.0
1457026770816089289,333,1457026770815622659,,2,5.24876629284,4.9750073081,0.0,-5.30156633963,-4.96175341783,0.0
1457026770866104802,334,1457026770865621436,,2,5.09169047577,5.15997516049,0.0,-4.80575071591,-5.13250784931,0.0
1457026770916081780,335,1457026770915614790,,2,5.27455787047,5.2163498511,0.0,-5.5397014551,-5.44571869336,0.0
1457026770966143228,336,1457026770965623615,,2,4.86244285871,5.14210913773,0.0,-5.25073242062,-5.22862856572,0.0
1457026771016088354,337,1457026771015622632,,2,5.19201670602,5.56802736839,0.0,-4.73836524509,-5.31852809698,0.0
1457026771066096825,338,1457026771065617745,,2,4.79766284354,5.01312870302,0.0,-4.88134140937,-5.32643376046,0.0
1457026771116022127,339,1457026771115613016,,2,4.77863080816,5.35128855136,0.0,-5.31955480092,-5.16719946844,0.0
1457026771166055512,340,1457026771165626130,,2,5.58722056448,4.81582951078,0.0,-4.90798453356,-4.79475746422,0.0
1457026771216100386,341,1457026771215622935,,2,5.26275890704,4.85626010953,0.0,-4.98293202182,-4.73054900196,0.0
1457026771266128281,342,1457026771265621191,,2,5.68675060729,5.23598086281,0.0,-4.73192529999,-5.23185106976,0.0
1457026771316060264,343,1457026771315606873,,2,4.98619152926,4.81935107955,0.0,-4.60259864982,-4.92761731648,0.0
1457026771366079612,344,1457026771365621761,,2,4.90391584789,5.7959777353,0.0,-5.25799893657,-4.98360759176,0.0
1457026771416090022,345,1457026771415632029,,2,4.65801695762,5.18014841834,0.0,-4.62012721615,-4.32983932178,0.0
1457026771466136848,346,1457026771465630745,,2,4.61297630217,4.87994796212,0.0,-4.78376285187,-5.02914020523,0.0
1457026771516086073,347,1457026771515618948,,2,5.14893429772,4.94397570747,0.0,-5.11550387322,-5.48371123281,0.0
1457026771566096240,348,1457026771565621779,,2,4.66264667765,5.19173779259,0.0,-5.26474586323,-5.00078452953,0.0
1457026771616075154,349,1457026771615603322,,2,5.3792737476,4.95945988212,0.0,-5.25826623115,-4.95256114504,0.0
1457026771666096825,350,1457026771665622500,,2,4.91781537031,5.24528556923,0.0,-4.31083811674,-4.72904879533,0.0
1457026771716074884,351,1457026771715627611,,2,4.95398995475,4.85499700895,0.0,-5.15383778901,-5.33772059736,0.0
1457026771766098688,352,1457026771765620082,,2,4.75369148732,4.5754032478,0.0,-4.41340618443,-4.83979886872,0.0
1457026771816083452,353,1457026771815611985,,2,4.78301898493,4.9455564002,0.0,-4.36876918615,-4.69593274305,0.0
1457026771866139695,354,1457026771865630661,,2,4.8212117019,4.47124622031,0.0,-5.44085241135,-5.06034178036,0.0
1457026771916027196,355,1457026771915596222,,2,4.90377264105,4.8336643803,0.0,-4.79630293037,-4.85830654776,0.0
1457026771966158997,356,1457026771965630419,,2,5.11336406516,5.23375145198,0.0,-4.95413959848,-5.10047583135,0.0
1457026772016070260,357,1457026772015608103,,2,5.42994317886,5.44654586366,0.0,-4.9102653783,-5.19858346403,0.0
1457026772066084778,358,1457026772065631603,,2,5.44929422185,4.99740391305,0.0,-5.08073859958,-5.46157682568,0.0
1457026772116052104,359,1457026772115585856,,2,5.23394312846,5.43273342617,0.0,-4.88368488284,-4.84019026763,0.0
1457026772166162418,360,1457026772165616754,,2,5.10556631129,5.02193148579,0.0,-5.16903053485,-5.26489498919,0.0
1457026772216063152,361,1457026772215619309,,2,4.85229200249,4.94022633041,0.0,-5.69873189649,-5.08201015859,0.0
1457026772266112182,362,1457026772265615442,,2,5.09599164162,4.91195335058,0.0,-4.83621898566,-5.02808139483,0.0
1457026772316265706,363,1457026772315631152,,2,4.98114822471,4.96612571627,0.0,-5.25535668218,-5.34682525904,0.0
1457026772366116443,364,1457026772365615431,,2,5.12111754138,5.30835789676,0.0,-4.8944420592,-5.32259247733,0.0
1457026772416060040,365,1457026772415635020,,2,4.71082675432,5.31216985782,0.0,-5.30808069635,-4.90796493394,0.0
1457026772466076946,366,1457026772465578481,,2,4.64263510228,5.09002026978,0.0,-5.20459646411,-4.90745319964,0.0
1457026772516033147,367,1457026772515583963,,2,5.34979691278,4.95946315244,0.0,-4.8376428268,-5.31709674374,0.0
1457026772566145883,368,1457026772565598476,,2,5.15055424212,5.22579593722,0.0,-4.43409601064,-4.67262782371,0.0
1457026772616077781,369,1457026772615607090,,2,5.14097709623,4.81948098776,0.0,-4.91982028409,-4.91113384272,0.0
1457026772666147111,370,1457026772665633563,,2,4.86559335108,4.82725231848,0.0,-4.78026003294,-4.57932041685,0.0
1457026772716097898,371,1457026772715586702,,2,4.86814069321,5.12976793267,0.0,-5.32189491429,-4.7368847257,0.0
1457026772766154175,372,1457026772765592279,,2,5.14650241866,5.37639057087,0.0,-4.90495560082,-5.16938993601,0.0
1457026772816142484,373,1457026772815611612,,2,4.56494334936,5.21058560472,0.0,-4.90071303984,-5.28493424398,0.0
1457026772866160764,374,1457026772865609748,,2,4.38906614936,5.06930532831,0.0,-4.77529011142,-4.91026061278,0.0
1457026772916114035,375,1457026772915612849,,2,5.34150228267,5.32317058014,0.0,-5.47799667437,-4.64929759322,0.0
1457026772966073142,376,1457026772965609123,,2,4.81433988757,4.88298086036,0.0,-5.64740484605,-5.11037568213,0.0
1457026773016116405,377,1457026773015605261,,2,5.05098936139,5.33825198098,0.0,-5.36025756291,-4.79240580225,0.0
1457026773066120599,378,1457026773065571329,,2,4.95694616671,5.03814056037,0.0,-5.10466247426,-5.15794537164,0.0
1457026773116170003,379,1457026773115635715,,2,4.56851057926,4.75213206798,0.0,-5.25039177906,-5.25992673999,0.0
1457026773166176670,380,1457026773165620750,,2,4.99503518367,5.43748045109,0.0,-5.14596034844,-4.45958198279,0.0
1457026773216099299,381,1457026773215631649,,2,4.96959465556,5.11707431175,0.0,-5.25738711318,-4.88212866882,0.0
1457026773266187578,382,1457026773265611457,,2,4.74835159009,4.77219727504,0.0,-4.45050497246,-4.94636007237,0.0
1457026773316146659,383,1457026773315626896,,2,4.90334129197,6.00363239617,0.0,-4.75123370716,-5.0249926919,0.0
1457026773366153189,384,1457026773365588188,,2,5.16656698278,4.66990212127,0.0,-4.90830952423,-4.84002483951,0.0
1457026773416130427,385,1457026773415628935,,2,5.63919207379,4.93009669113,0.0,-4.72544212953,-4.7836501489,0.0
1457026773466182775,386,1457026773465611911,,2,4.9360599918,4.4874201725,0.0,-5.13755714129,-4.85789086227,0.0
1457026773516147982,387,1457026773515628205,,2,4.88735237861,5.1682981825,0.0,-4.80798329398,-4.43197263161,0.0
1457026773566174195,388,1457026773565609580,,2,4.43512282065,4.67037570938,0.0,-5.20233715646,-4.98687129698,0.0
1457026773616133031,389,1457026773615626401,,2,5.22661744433,5.18218455736,0.0,-5.22136919184,-4.64871144864,0.0
1457026773666112403,390,1457026773665571773,,2,5.48437536549,4.67660665688,0.0,-4.41277943552,-5.18417048922,0.0
1457026773716090531,391,1457026773715579201,,2,5.19411708482,4.81691552019,0.0,-4.73724109296,-5.14373989047,0.0
1457026773766047670,392,1457026773765562245,,2,5.11021252433,4.75696796211,0.0,-4.31324939271,-4.76401913719,0.0
1457026773816119548,393,1457026773815626379,,2,4.97035093157,5.43919158573,0.0,-5.01380847074,-5.18064892045,0.0
1457026773866054159,394,1457026773865555855,,2,4.66922348808,4.77715502538,0.0,-5.09608415211,-4.2040222647,0.0
1457026773916118249,395,1457026773915620897,,2,5.09413056186,5.01340436266,0.0,-5.34198304238,-4.81985158166,0.0
1457026773966088676,396,1457026773965559221,,2,4.54136657566,5.23274489929,0.0,-5.38702369783,-5.12005203788,0.0
1457026774016148455,397,1457026774015630134,,2,4.86598888342,5.32227708305,0.0,-4.85106570228,-5.05602429253,0.0
1457026774066109078,398,1457026774065623798,,2,5.18330716206,5.29489100777,0.0,-5.33735332235,-4.80826220741,0.0
1457026774116179341,399,1457026774115623851,,2,5.13747576561,5.286367265,0.0,-4.6207262524,-5.04054011788,0.0
1457026774166148886,400,1457026774165607409,,2,4.73398012723,5.14002593674,0.0,-5.08218462969,-4.75471443077,0.0
1457026774216150762,401,1457026774215628316,,2,5.43090506872,5.28980254379,0.0,-5.04601004525,-5.14500299105,0.0
1457026774266149278,402,1457026774265622406,,2,4.33722920489,4.52779942072,0.0,-5.24630851268,-5.4245967522,0.0
1457026774316154612,403,1457026774315621474,,2,4.50983738026,5.09055667217,0.0,-5.21698101507,-5.0544435998,0.0
1457026774366148052,404,1457026774365587802,,2,4.85821101996,4.59867109266,0.0,-5.1787882981,-5.52875377969,0.0
1457026774416106636,405,1457026774415611040,,2,4.96403733499,4.88958309738,0.0,-5.09622735895,-5.1663356197,0.0
1457026774466160579,406,1457026774465595839,,2,4.72609541834,4.67506097549,0.0,-4.88663593484,-4.76624854802,0.0
1457026774516160137,407,1457026774515606307,,2,5.35991697524,5.07714230533,0.0,-4.57005682114,-4.55345413634,0.0
1457026774566095956,408,1457026774565599481,,2,5.22830033648,5.10534549319,0.0,-4.55070577815,-5.00259608695,0.0
1457026774616144307,409,1457026774615627065,,2,4.88728540241,5.24110275472,0.0,-4.76605687154,-4.56726657383,0.0
1457026774666091982,410,1457026774665589903,,2,4.58425447232,4.91835001783,0.0,-4.89443368871,-4.97806851421,0.0
1457026774716128028,411,1457026774715623305,,2,4.45320732932,4.20141586696,0.0,-5.14770799751,-5.05977366959,0.0
1457026774766039206,412,1457026774765579592,,2,4.69775773512,5.19821217927,0.0,-4.90400835838,-5.08804664942,0.0
1457026774816139078,413,1457026774815626468,,2,5.20503990101,4.56413453035,0.0,-5.01885177529,-5.03387428373,0.0
1457026774866138448,414,1457026774865628043,,2,4.95551924156,4.77921663172,0.0,-4.87888245862,-4.69164210324,0.0
1457026774916155443,415,1457026774915621332,,2,5.26444334861,4.94722504412,0.0,-5.28917324568,-4.68783014218,0.0
1457026774966103809,416,1457026774965641404,,2,4.51109833009,4.90248343369,0.0,-5.35736489772,-4.90997973022,0.0
1457026775016067498,417,1457026775015622142,,2,4.79318849955,5.40497358534,0.0,-4.65020308722,-5.04053684756,0.0
1457026775066075792,418,1457026775065622869,,2,5.35736605511,5.27947136518,0.0,-4.84944575788,-4.77420406278,0.0
1457026775116124941,419,1457026775115617125,,2,4.90678747247,4.92193743345,0.0,-4.85902290377,-5.18051901224,0.0
1457026775166132553,420,1457026775165621575,,2,5.05984537992,4.67292537018,0.0,-5.13440664892,-5.17274768152,0.0
1457026775216121283,421,1457026775215623168,,2,4.58834347198,5.21481513745,0.0,-5.13185930679,-4.87023206733,0.0
1457026775266133402,422,1457026775265627322,,2,5.09466464306,5.06076518288,0.0,-4.85349758134,-4.62360942913,0.0
1457026775316075521,423,1457026775315619550,,2,4.98826803153,5.11295450922,0.0,-5.43505665064,-4.78941439528,0.0
1457026775366120714,424,1457026775365621793,,2,5.20890584296,5.30188312987,0.0,-5.61093385064,-4.93069467169,0.0
1457026775416116778,425,1457026775415619267,,2,4.9547257823,5.22945197645,0.0,-4.65849771733,-4.67682941986,0.0
1457026775466143109,426,1457026775465621511,,2,4.67935619327,5.12675348863,0.0,-5.18566011243,-5.11701913964,0.0
1457026775516077240,427,1457026775515625012,,2,4.8434526905,4.97304008585,0.0,-4.94901063861,-4.66174801902,0.0
1457026775566134323,428,1457026775565622813,,2,4.8711248055,5.03532209755,0.0,-5.04305383329,-4.96185943963,0.0
1457026775616091716,429,1457026775615587046,,2,5.10769379689,4.8928079239,0.0,-5.43148942074,-5.24786793202,0.0
1457026775666107353,430,1457026775665626843,,2,4.21124573118,4.9101501258,0.0,-5.00496481633,-4.56251954891,0.0
1457026775716070089,431,1457026775715584189,,2,5.47279943507,4.82514504592,0.0,-5.03040534444,-4.88292568825,0.0
1457026775766129515,432,1457026775765619729,,2,4.84627690754,4.81953381057,0.0,-5.25164840991,-5.22780272496,0.0
1457026775816120762,433,1457026775815619072,,2,5.46506292986,4.87338208568,0.0,-5.09665870803,-3.99636760383,0.0
1457026775866128236,434,1457026775865610241,,2,5.01815062717,5.31050143983,0.0,-4.83343301722,-5.33009787873,0.0
1457026775916101176,435,1457026775915605871,,2,4.84759396274,4.69559871774,0.0,-4.36080792621,-5.06990330887,0.0
1457026775966122256,436,1457026775965608546,,2,4.97537874395,5.09828813698,0.0,-5.0639400082,-5.5125798275,0.0
1457026776016109005,437,1457026776015614076,,2,4.80478535646,4.63514770852,0.0,-5.11264762139,-4.8317018175,0.0
1457026776066080385,438,1457026776065559529,,2,4.88225464126,4.6720415901,0.0,-5.56487717935,-5.32962429062,0.0
1457026776116053385,439,1457026776115555961,,2,5.59172523162,5.26938283381,0.0,-4.77338255567,-4.81781544264,0.0
1457026776166069825,440,1457026776165557168,,2,4.97887915326,5.70153723713,0.0,-4.51562463451,-5.32339334312,0.0
1457026776216072036,441,1457026776215588128,,2,5.10903001367,5.66250070351,0.0,-4.80588291518,-5.18308447981,0.0
1457026776266194156,442,1457026776265667111,,2,4.87396387373,4.77795783421,0.0,-4.88978747567,-5.24303203789,0.0
1457026776316116016,443,1457026776315582438,,2,5.29628262078,4.56043150529,0.0,-5.02964906843,-4.56080841427,0.0
1457026776366081710,444,1457026776365580514,,2,4.87983028859,5.17811554322,0.0,-5.33077651192,-5.22284497462,0.0
1457026776416156881,445,1457026776415618455,,2,5.0624208379,4.67848546116,0.0,-4.90586943814,-4.98659563734,0.0
1457026776466181311,446,1457026776465612209,,2,4.83796120491,4.6803338899,0.0,-5.45863342434,-4.76725510071,0.0
1457026776516146446,447,1457026776515624380,,2,5.21704716643,5.0091634361,0.0,-5.13401111658,-4.67772291695,0.0
1457026776566189422,448,1457026776565623720,,2,4.62094227531,4.71662073479,0.0,-4.81669283794,-4.70510899223,0.0
1457026776616026989,449,1457026776615595390,,2,4.34427232901,5.56525787718,0.0,-4.86252423439,-4.713632735,0.0
1457026776666174878,450,1457026776665628364,,2,5.37821394216,4.77949271367,0.0,-5.26601987277,-4.85997406326,0.0
1457026776716135634,451,1457026776715617980,,2,5.23938202318,5.00173131449,0.0,-4.56909493128,-4.71019745621,0.0
1457026776766136083,452,1457026776765628398,,2,4.67179587631,5.07890573684,0.0,-5.66277079511,-5.47220057928,0.0
1457026776816096548,453,1457026776815614656,,2,4.97931852108,5.01064451194,0.0,-5.49016261974,-4.90944332783,0.0
1457026776866194024,454,1457026776865619251,,2,4.68353034472,5.07931618091,0.0,-5.14178898004,-5.40132890734,0.0
1457026776916088234,455,1457026776915566569,,2,5.10082089487,4.20831096577,0.0,-5.03596266501,-5.11041690262,0.0
1457026776966122903,456,1457026776965625754,,2,4.88752913862,5.2296845519,0.0,-5.27390458166,-5.32493902451,0.0
1457026777016176423,457,1457026777015622181,,2,5.04521468947,4.79615319862,0.0,-4.64008302476,-4.92285769467,0.0
1457026777066179749,458,1457026777065620457,,2,4.77737134139,5.04050434267,0.0,-4.77169966352,-4.89465450681,0.0
1457026777116081511,459,1457026777115588178,,2,5.53002316813,5.12114408081,0.0,-5.11271459759,-4.75889724528,0.0
1457026777166200445,460,1457026777165632107,,2,5.15552064541,5.30941734747,0.0,-5.41574552768,-5.08164998217,0.0
1457026777216176751,461,1457026777215620079,,2,4.94581868877,4.69787790464,0.0,-5.54679267068,-5.79858413304,0.0
1457026777266191233,462,1457026777265620870,,2,4.79380801979,5.03467135572,0.0,-5.30224226488,-4.80178782073,0.0
1457026777316171238,463,1457026777315619046,,2,5.21462483518,5.30628423399,0.0,-4.79496009899,-5.43586546965,0.0
1457026777366192736,464,1457026777365620378,,2,4.73955755515,5.40405232665,0.0,-5.04448075844,-5.22078336828,0.0
1457026777416159821,465,1457026777415611157,,2,4.80863763626,4.84690841355,0.0,-4.73555665139,-5.05277495588,0.0
1457026777466175671,466,1457026777465617045,,2,5.13434561467,5.35049948316,0.0,-5.48890166991,-5.09751656631,0.0
1457026777516136336,467,1457026777515600221,,2,4.96339522827,4.49749606126,0.0,-5.20681150045,-4.59502641466,0.0
1457026777566180140,468,1457026777565621679,,2,5.01210280866,5.26920527608,0.0,-4.64263394489,-4.72052863482,0.0
1457026777616161347,469,1457026777615608574,,2,5.46868649106,4.73237057758,0.0,-5.09321252753,-5.07806256655,0.0
1457026777665996152,470,1457026777665581091,,2,4.92929620471,5.58751688157,0.0,-4.94015462008,-5.32707462982,0.0
1457026777716141837,471,1457026777715628433,,2,5.00505313372,4.94827833247,0.0,-5.41165652802,-4.78518486255,0.0
1457026777766144811,472,1457026777765621874,,2,5.23453170162,5.5781118655,0.0,-4.90533535694,-4.93923481712,0.0
1457026777816157551,473,1457026777815597406,,2,4.90608862174,5.39118880916,0.0,-5.01173196847,-4.88704549078,0.0
1457026777866164792,474,1457026777865605915,,2,5.10708212511,5.06901196457,0.0,-4.79109415704,-4.69811687013,0.0
1457026777916052717,475,1457026777915561479,,2,4.39416619707,4.68549085787,0.0,-5.0452742177,-4.77054802355,0.0
1457026777966170283,476,1457026777965614784,,2,4.73000060766,4.39326465625,0.0,-5.32064380673,-4.87324651137,0.0
1457026778016046842,477,1457026778015555985,,2,4.1926069114,4.75664075595,0.0,-5.1565473095,-5.02695991415,0.0
1457026778066181445,478,1457026778065621543,,2,4.42501904855,5.28965845975,0.0,-5.1288751945,-4.96467790245,0.0
1457026778116089859,479,1457026778115593544,,2,4.54832863366,4.42189948164,0.0,-4.89230620311,-5.1071920761,0.0
1457026778166224078,480,1457026778165605832,,2,4.57982530563,4.43951762395,0.0,-5.78875426882,-5.0898498742,0.0
1457026778216074542,481,1457026778215602482,,2,4.98326763809,4.96500474239,0.0,-4.52720056493,-5.17485495408,0.0
1457026778266076933,482,1457026778265557556,,2,4.65783069149,4.60799584021,0.0,-5.15372309246,-5.18046618943,0.0
1457026778316166320,483,1457026778315604948,,2,5.06476404631,4.97676351165,0.0,-4.53493707014,-5.12661791432,0.0
1457026778366145393,484,1457026778365590319,,2,5.10192537121,5.38622436206,0.0,-4.98184937283,-4.68949856017,0.0
1457026778416159569,485,1457026778415613236,,2,4.8900270305,4.57957019956,0.0,-5.15240603726,-5.30440128226,0.0
1457026778466131500,486,1457026778465587788,,2,5.02312325658,5.26660478465,0.0,-5.02462125605,-4.90171186302,0.0
1457026778516148694,487,1457026778515618627,,2,5.10650299829,5.09925537109,0.0,-5.19521464354,-5.36485229148,0.0
1457026778566112746,488,1457026778565621277,,2,4.8792645606,4.90351662439,0.0,-5.11774535874,-5.3279584099,0.0
1457026778616098595,489,1457026778615609866,,2,4.22928030149,5.24968505028,0.0,-4.40827476838,-4.73061716619,0.0
1457026778666124462,490,1457026778665621562,,2,4.64205250195,5.09496705262,0.0,-5.02112084674,-4.29846276287,0.0
1457026778716110093,491,1457026778715620629,,2,4.76771629316,4.62389901227,0.0,-4.89096998633,-4.33749929649,0.0
1457026778766118171,492,1457026778765620644,,2,5.05985639282,4.53292788287,0.0,-5.12603612627,-5.22204216579,0.0
1457026778816109902,493,1457026778815617130,,2,4.93332560699,5.09150557141,0.0,-4.70371737922,-5.43956849471,0.0
1457026778866040229,494,1457026778865570464,,2,4.89301025986,4.82661011403,0.0,-5.12016971141,-4.82188445678,0.0
1457026778916113010,495,1457026778915623038,,2,4.72356276609,5.16077993726,0.0,-4.9375791621,-5.32151453884,0.0
1457026778966027810,496,1457026778965559373,,2,5.02457718453,4.96229075671,0.0,-5.16203879509,-5.3196661101,0.0
1457026779016109965,497,1457026779015624059,,2,5.05657537842,4.90141363767,0.0,-4.78295283357,-4.9908365639,0.0
1457026779066081665,498,1457026779065629835,,2,4.98887344694,5.27478348153,0.0,-5.37905772469,-5.28337926521,0.0
1457026779116129490,499,1457026779115596500,,2,4.80364615169,4.83023742711,0.0,-5.65572767099,-4.43474212282,0.0
1457026779166194535,500,1457026779165631464,,2,4.1813522239,4.53476001715,0.0,-4.62178605784,-5.22050728633,0.0
1457026779216174739,501,1457026779215629543,,2,4.77021570885,4.93986224404,0.0,-4.76061797682,-4.99826868551,0.0
1457026779266182412,502,1457026779265620378,,2,5.40492045058,4.56848320405,0.0,-5.32820412369,-4.92109426316,0.0
1457026779316158113,503,1457026779315619154,,2,4.97392083844,5.28003810316,0.0,-5.02068147892,-4.98935548806,0.0
1457026779366193446,504,1457026779365632454,,2,4.79375636606,5.45242084486,0.0,-5.31646965528,-4.92068381909,0.0
1457026779416153909,505,1457026779415624240,,2,5.42413227999,5.39436582373,0.0,-4.89917910513,-5.79168903423,0.0
1457026779466138797,506,1457026779465632998,,2,5.19509029848,4.92251638507,0.0,-5.11247086138,-4.7703154481,0.0
1457026779516102766,507,1457026779515624788,,2,4.52611560497,4.38467804316,0.0,-4.95478531053,-5.20384680138,0.0
1457026779566116201,508,1457026779565631900,,2,4.53045613389,5.06092675928,0.0,-5.22262865861,-4.95949565733,0.0
1457026779616015862,509,1457026779615597128,,2,4.45258887139,4.3440458684,0.0,-4.46997683187,-4.87885591919,0.0
1457026779666088582,510,1457026779665620554,,2,4.51311061637,4.85948686297,0.0,-4.84447935459,-4.69058265253,0.0
1457026779716112399,511,1457026779715619117,,2,4.88176479435,4.8429133628,0.0,-5.05418131123,-5.30212209536,0.0
1457026779766185478,512,1457026779765621064,,2,4.73081915046,4.92383489825,0.0,-5.20619198021,-4.96532864428,0.0
1457026779816144649,513,1457026779815632693,,2,4.96411835178,4.80494143883,0.0,-4.78537516482,-4.69371576601,0.0
1457026779866133917,514,1457026779865626315,,2,4.43894570145,4.92016703832,0.0,-5.26044244485,-4.59594767335,0.0
1457026779916115100,515,1457026779915629467,,2,5.74024714408,4.97070421299,0.0,-5.19136236374,-5.15309158645,0.0
1457026779966193524,516,1457026779965630659,,2,5.1001847521,5.50245213517,0.0,-4.86565438533,-4.64950051684,0.0
1457026780016142475,517,1457026780015629757,,2,5.4699081141,5.36828789313,0.0,-5.03660477173,-5.50250393874,0.0
1457026780066125123,518,1457026780065626312,,2,5.25533887818,5.21041842619,0.0,-4.98789719134,-4.73079472392,0.0
1457026780116016423,519,1457026780115610216,,2,5.2485768404,5.10496664172,0.0,-4.53131350894,-5.26762942242,0.0
1457026780165971042,520,1457026780165574299,,2,4.52723082602,5.32312071761,0.0,-5.07070379529,-4.41248311843,0.0
1457026780216103093,521,1457026780215612755,,2,4.63849431293,5.12156004202,0.0,-4.99494686628,-5.05172166753,0.0
1457026780266684685,522,1457026780265619825,,2,4.89871546646,5.11370394114,0.0,-4.76546829838,-4.4218881345,0.0
1457026780316165153,523,1457026780315623664,,2,5.0175595508,4.79355405119,0.0,-5.09391137826,-4.60881119084,0.0
1457026780366187632,524,1457026780365617885,,2,4.75791160409,4.74893597502,0.0,-4.89291787489,-4.93098803543,0.0
1457026780416130747,525,1457026780415626100,,2,5.04240284641,4.69492524362,0.0,-5.60583380293,-5.31450914213,0.0
1457026780466164157,526,1457026780465629621,,2,5.46206305863,4.79260505477,0.0,-5.26999939234,-5.60673534375,0.0
1457026780516105952,527,1457026780515634058,,2,5.27784571891,4.95194132294,0.0,-5.8073930886,-5.24335924405,0.0
1457026780566101534,528,1457026780565625167,,2,5.18371524704,5.48186473295,0.0,-5.57498095145,-4.71034154025,0.0
1457026780616082297,529,1457026780615609212,,2,5.54494929165,5.64932353222,0.0,-5.45167136634,-5.57810051836,0.0
1457026780666090749,530,1457026780665619476,,2,4.80772786567,4.45230936365,0.0,-5.42017469437,-5.56048237605,0.0
1457026780716067293,531,1457026780715621439,,2,5.47307843263,5.31640205729,0.0,-5.01673236191,-5.03499525761,0.0
1457026780766113690,532,1457026780765628936,,2,4.71665259402,4.95438385123,0.0,-5.34216930851,-5.39200415979,0.0
1457026780816103606,533,1457026780815617800,,2,4.90504948321,4.98167429769,0.0,-4.93523595369,-5.02323648835,0.0
1457026780866113849,534,1457026780865623021,,2,5.52550592541,4.37395571056,0.0,-4.89807462879,-4.61377563794,0.0
1457026780916103856,535,1457026780915618716,,2,4.4257210743,5.05481935551,0.0,-5.1099729695,-5.42042980044,0.0
1457026780966104426,536,1457026780965620164,,2,4.52527117486,5.37566831577,0.0,-4.97687674342,-4.73339521535,0.0
1457026781016114409,537,1457026781015616475,,2,4.94367288554,4.89532262885,0.0,-4.89349700171,-4.90074462891,0.0
1457026781065904472,538,1457026781065562852,,2,4.99577441516,4.92314778754,0.0,-5.1207354394,-5.09648337561,0.0
1457026781115835330,539,1457026781115543552,,2,4.58938059037,4.94798916769,0.0,-5.77071969851,-4.75031494972,0.0
1457026781165720557,540,1457026781165536425,,2,4.71806064384,5.40002181928,0.0,-5.35794749805,-4.90503294738,0.0
1457026781215743619,541,1457026781215544959,,2,5.24381914024,5.33557608946,0.0,-5.23228370684,-5.37610098773,0.0
1457026781266051713,542,1457026781265618472,,2,4.6208919749,4.77227065918,0.0,-4.94014360718,-5.46707211713,0.0
1457026781315798760,543,1457026781315575874,,2,4.94377836379,5.73531042199,0.0,-5.06667439301,-4.90849442859,0.0
1457026781365738324,544,1457026781365543495,,2,5.22673310387,5.06502954587,0.0,-5.10698974014,-5.17338988597,0.0
1457026781415739882,545,1457026781415539268,,2,5.02086486908,4.32708174591,0.0,-5.27643723391,-4.83922006274,0.0
1457026781465704542,546,1457026781465540975,,2,5.00682479482,5.15045181486,0.0,-4.97542281547,-5.03770924329,0.0
1457026781515757396,547,1457026781515544920,,2,4.75685360817,5.09204795532,0.0,-4.94342462158,-5.09858636233,0.0
1457026781565851217,548,1457026781565553576,,2,4.76820822714,4.43744739734,0.0,-5.01112655306,-4.72521651847,0.0
1457026781616177836,549,1457026781615552987,,2,4.86131313962,5.16930861509,0.0,-5.19635384831,-5.16976257289,0.0
1457026781665781437,550,1457026781665552598,,2,4.95327520879,4.45693607737,0.0,-5.8186477761,-5.46523998285,0.0
1457026781716097858,551,1457026781715618557,,2,4.69813833829,5.23503781919,0.0,-5.22978429115,-5.06013775596,0.0
1457026781765731295,552,1457026781765541385,,2,4.70773714852,4.34264972215,0.0,-4.59507954942,-5.43151679595,0.0
1457026781815794597,553,1457026781815547838,,2,4.89888762259,4.65958703265,0.0,-5.02607916156,-4.71996189684,0.0
1457026781865750019,554,1457026781865541004,,2,4.58435062316,5.1576418204,0.0,-5.20624363394,-4.54757915514,0.0
1457026781915743208,555,1457026781915540164,,2,5.17155947507,5.0212105991,0.0,-4.57586772001,-4.60563417627,0.0
1457026781965705354,556,1457026781965538963,,2,4.60728962929,5.70530528295,0.0,-4.80490970152,-5.07748361493,0.0
1457026782015739806,557,1457026782015538687,,2,4.6219722208,5.19468525644,0.0,-5.47388439503,-5.61532195684,0.0
1457026782065703366,558,1457026782065541479,,2,4.97609311606,5.18669087954,0.0,-5.46954386611,-4.93907324072,0.0
1457026782115748153,559,1457026782115539085,,2,5.03845522974,5.11129934559,0.0,-5.54741112861,-5.6559541316,0.0
1457026782165722342,560,1457026782165541395,,2,5.15272875485,4.68434136895,0.0,-5.48688938363,-5.14051313703,0.0
1457026782216037331,561,1457026782215555405,,2,4.52346070294,5.22452987825,0.0,-5.11823520565,-5.1570866372,0.0
1457026782265975702,562,1457026782265560202,,2,5.255395938,4.78262214598,0.0,-5.26918084954,-5.07616510175,0.0
1457026782315806754,563,1457026782315544130,,2,4.51820018536,5.39258412636,0.0,-5.03588164822,-5.19505856117,0.0
1457026782365732150,564,1457026782365539940,,2,5.05189615744,4.56996896104,0.0,-5.56105429855,-5.07983296168,0.0
1457026782415757463,565,1457026782415538608,,2,4.4832391627,5.39160429924,0.0,-4.25975285592,-5.02929578701,0.0
1457026782465959518,566,1457026782465547896,,2,5.0118036699,4.96935447171,0.0,-4.8998152479,-4.49754786483,0.0
1457026782516029044,567,1457026782515561454,,2,5.01471641906,4.53883139377,0.0,-4.5300918859,-4.63171210687,0.0
1457026782565787447,568,1457026782565551575,,2,4.71442104111,5.27710893333,0.0,-4.74466112182,-4.78958157381,0.0
1457026782615733150,569,1457026782615542064,,2,5.02999612496,5.138349522,0.0,-4.7514231596,-4.89503335828,0.0
1457026782665704908,570,1457026782665540549,,2,5.22948264811,4.11562417637,0.0,-5.47276917398,-4.67687928239,0.0
1457026782715749875,571,1457026782715542813,,2,5.20598506124,4.93207395322,0.0,-5.36150568707,-4.87843995798,0.0
1457026782765774315,572,1457026782765544382,,2,4.87358785385,5.23851381614,0.0,-5.10128453354,-4.88629605886,0.0
1457026782815741509,573,1457026782815542434,,2,4.78219432524,4.59624805087,0.0,-4.9824404492,-5.20644594881,0.0
1457026782865737094,574,1457026782865536488,,2,4.29073127024,5.28782838223,0.0,-5.24208839591,-5.25106402498,0.0
1457026782915948162,575,1457026782915618275,,2,5.10772752711,4.81386249494,0.0,-4.95759715359,-5.30507475638,0.0
